{
    "branches": [
        {
            "contacts": {
                "email": "aguilar@nypl.org", 
                "phone": "2125342930"
            }, 
            "cross_street": "between Park &amp; Lexington Aves.", 
            "id": "FE", 
            "lat": 40.7619, 
            "locality": "New York", 
            "long": -73.9691, 
            "name": "58th Street Library", 
            "postal_code": "10022-1211", 
            "region": "NY", 
            "street_address": "127 East 58th Street"
        }, 
        {
            "contacts": {
                "email": "ahlbph@nypl.org", 
                "phone": "2122065400", 
                "tty": "2122065458"
            }, 
            "cross_street": "near First Ave.", 
            "id": "SS", 
            "lat": 40.7652, 
            "locality": "New York", 
            "long": -73.9601, 
            "name": "67th Street Library", 
            "postal_code": "100656204", 
            "region": "NY", 
            "street_address": "328 East 67th Street"
        }, 
        {
            "contacts": {
                "email": "bloomingdale@nypl.org", 
                "phone": "2122228030"
            }, 
            "cross_street": "near Lexington Ave.", 
            "id": "NSR", 
            "lat": 40.7863, 
            "locality": "New York", 
            "long": -73.9522, 
            "name": "96th Street Library", 
            "postal_code": "101282597", 
            "region": "NY", 
            "street_address": "112 East 96th Street"
        }, 
        {
            "contacts": {
                "email": "chathamsquare@nypl.org", 
                "phone": "2129646598"
            }, 
            "cross_street": null, 
            "id": "HU", 
            "lat": 40.8028, 
            "locality": "New York", 
            "long": -73.9532, 
            "name": "115th Street Library", 
            "postal_code": "10026-2403", 
            "region": "NY", 
            "street_address": "203 West 115th Street"
        }, 
        {
            "contacts": {
                "email": "morningside@nypl.org", 
                "phone": "2128642530"
            }, 
            "cross_street": "near Third Ave.", 
            "id": "HD", 
            "lat": 40.8034, 
            "locality": "New York", 
            "long": -73.9354, 
            "name": "125th Street Library", 
            "postal_code": "100351786", 
            "region": "NY", 
            "street_address": "224 East 125th Street"
        }, 
        {
            "contacts": {
                "email": "columbus@nypl.org", 
                "phone": "2125865098"
            }, 
            "cross_street": "between Lexington & Third Aves.", 
            "id": "AG", 
            "lat": 40.7943, 
            "locality": "New York", 
            "long": -73.9436, 
            "name": "Aguilar Library", 
            "postal_code": "100293212", 
            "region": "NY", 
            "street_address": "174 East 110th Street"
        }, 
        {
            "contacts": {
                "email": "countee_cullen@nypl.org", 
                "phone": "2124912070"
            }, 
            "cross_street": "between Allerton & Arnow Aves.", 
            "id": "AL", 
            "lat": 40.866, 
            "locality": "Bronx", 
            "long": -73.8632, 
            "name": "Allerton Library", 
            "postal_code": "10467", 
            "region": "NY", 
            "street_address": "2740 Barnes Avenue"
        }, 
        {
            "cross_street": "between 5th and 6th Aves.", 
            "id": "LBL", 
            "lat": 40.7404, 
            "locality": "New York", 
            "long": -73.993, 
            "name": "Andrew Heiskell Braille and Talking Book Library", 
            "postal_code": "10011-4211", 
            "region": "NY", 
            "street_address": "40 West 20th Street"
        }, 
        {
            "cross_street": "north of Bartow Ave.", 
            "id": "BAR", 
            "lat": 40.8711, 
            "locality": "Bronx", 
            "long": -73.8305, 
            "name": "Baychester Library", 
            "postal_code": "10475", 
            "region": "NY", 
            "street_address": "2049 Asch Loop North"
        }, 
        {
            "contacts": {
                "email": "epiphany@nypl.org", 
                "phone": "2126792645"
            }, 
            "cross_street": "at Hughes Ave.", 
            "id": "BER", 
            "lat": 40.8544, 
            "locality": "Bronx", 
            "long": -73.8877, 
            "name": "Belmont Library and Enrico Fermi Cultural Center", 
            "postal_code": "10458", 
            "region": "NY", 
            "street_address": "610 E. 186th Street"
        }, 
        {
            "contacts": {
                "email": "58st_branch@nypl.org", 
                "phone": "2127597358"
            }, 
            "cross_street": "between Amsterdam & Columbus Aves.", 
            "id": "BLR", 
            "lat": 40.796, 
            "locality": "New York", 
            "long": -73.9671, 
            "name": "Bloomingdale Library", 
            "postal_code": "100255196", 
            "region": "NY", 
            "street_address": "150 West 100th Street"
        }, 
        {
            "contacts": {
                "email": "fort_washington@nypl.org", 
                "phone": "2129273533"
            }, 
            "cross_street": "at Briggs Avenue", 
            "id": "BLC", 
            "lat": 40.8634, 
            "locality": "Bronx", 
            "long": -73.8944, 
            "name": "Bronx Library Center", 
            "postal_code": "10458", 
            "region": "NY", 
            "street_address": "310 East Kingsbridge Road"
        }, 
        {
            "contacts": {
                "email": "george_bruce@nypl.org", 
                "phone": "2126629727"
            }, 
            "cross_street": "at Bruckner Blvd.", 
            "id": "CT", 
            "lat": 40.8264, 
            "locality": "Bronx", 
            "long": -73.8499, 
            "name": "Castle Hill Library", 
            "postal_code": "10473", 
            "region": "NY", 
            "street_address": "947 Castle Hill Avenue"
        }, 
        {
            "contacts": {
                "email": "hamilton_fish@nypl.org", 
                "phone": "2126732290"
            }, 
            "cross_street": "near Catherine St.", 
            "id": "CHR", 
            "lat": 40.7134, 
            "locality": "New York", 
            "long": -73.9965, 
            "name": "Chatham Square Library", 
            "postal_code": "10002-6804", 
            "region": "NY", 
            "street_address": "33 East Broadway"
        }, 
        {
            "contacts": {
                "email": "hamilton_grange@nypl.org", 
                "phone": "2129262147"
            }, 
            "cross_street": "between Bay & Fordham Sts.", 
            "id": "CI", 
            "lat": 40.8477, 
            "locality": "Bronx", 
            "long": -73.7865, 
            "name": "City Island Library", 
            "postal_code": "10464", 
            "region": "NY", 
            "street_address": "320 City Island Avenue"
        }, 
        {
            "contacts": {
                "email": "harlem@nypl.org", 
                "phone": "2123485620"
            }, 
            "cross_street": "near Westchester Ave.", 
            "id": "CP", 
            "lat": 40.8299, 
            "locality": "Bronx", 
            "long": -73.8748, 
            "name": "Clason's Point Library", 
            "postal_code": "10472", 
            "region": "NY", 
            "street_address": "1215 Morrison Avenue"
        }, 
        {
            "contacts": {
                "email": "hudson_park@nypl.org", 
                "phone": "2122436876"
            }, 
            "cross_street": "between 50th & 51st Sts.", 
            "id": "CS", 
            "lat": 40.765, 
            "locality": "New York", 
            "long": -73.9914, 
            "name": "Columbus Library", 
            "postal_code": "100197019", 
            "region": "NY", 
            "street_address": "742 10th Avenue"
        }, 
        {
            "contacts": {
                "email": "inwood@nypl.org", 
                "phone": "2129422445"
            }, 
            "cross_street": "near Lenox Ave.", 
            "id": "HTR", 
            "lat": 40.8148, 
            "locality": "New York", 
            "long": -73.9408, 
            "name": "Countee Cullen Library", 
            "postal_code": "10030-2695", 
            "region": "NY", 
            "street_address": "104 West 136th Street"
        }, 
        {
            "contacts": {
                "email": "jefferson_market@nypl.org", 
                "phone": "2122434334"
            }, 
            "cross_street": "between Seaview & Liberty Aves.", 
            "id": "DH", 
            "lat": 40.5906, 
            "locality": "Staten Island", 
            "long": -74.101, 
            "name": "Dongan Hills Library", 
            "postal_code": "10304", 
            "region": "NY", 
            "street_address": "1617 Richmond Road"
        }, 
        {
            "contacts": {
                "email": "kips_bay@nypl.org", 
                "phone": "2126832520"
            }, 
            "cross_street": null, 
            "id": "DLC", 
            "lat": 40.7609, 
            "locality": "New York", 
            "long": -73.9774, 
            "name": "Donnell Library Center", 
            "postal_code": "10019-6185", 
            "region": "NY", 
            "street_address": "20 West 53rd Street"
        }, 
        {
            "contacts": {
                "email": "macombs_bridge@nypl.org", 
                "phone": "2122814900"
            }, 
            "cross_street": "near Eastchester Rd.", 
            "id": "EA", 
            "lat": 40.8702, 
            "locality": "Bronx", 
            "long": -73.8454, 
            "name": "Eastchester Library", 
            "postal_code": "10469", 
            "region": "NY", 
            "street_address": "1385 East Gun Hill Road"
        }, 
        {
            "contacts": {
                "phone": "2123400863", 
                "tty": "2123400931"
            }, 
            "cross_street": "at DeReimer Ave.", 
            "id": "EW", 
            "lat": 40.8888, 
            "locality": "Bronx", 
            "long": -73.8409, 
            "name": "Edenwald Library", 
            "postal_code": "10466", 
            "region": "NY", 
            "street_address": "1255 East 233rd Street"
        }, 
        {
            "contacts": {
                "email": "muhlenberg@nypl.org", 
                "phone": "2129241585"
            }, 
            "cross_street": "near Second Ave.", 
            "id": "EP", 
            "lat": 40.7385, 
            "locality": "New York", 
            "long": -73.9827, 
            "name": "Epiphany Library", 
            "postal_code": "10010-4672", 
            "region": "NY", 
            "street_address": "228 East 23rd Street"
        }, 
        {
            "contacts": {
                "email": "new_amsterdam@nypl.org", 
                "phone": "2127328186"
            }, 
            "cross_street": "between St. Nicholas & Audubon Aves.", 
            "id": "FW", 
            "lat": 40.8478, 
            "locality": "New York", 
            "long": -73.9337, 
            "name": "Fort Washington Library", 
            "postal_code": "100335799", 
            "region": "NY", 
            "street_address": "535 West 179th Street"
        }, 
        {
            "contacts": {
                "phone": "9172756975"
            }, 
            "cross_street": "at 181st St.", 
            "id": "FXR", 
            "lat": 40.8574, 
            "locality": "Bronx", 
            "long": -73.9095, 
            "name": "Francis Martin Library", 
            "postal_code": "10453", 
            "region": "NY", 
            "street_address": "2150 University Avenue"
        }, 
        {
            "contacts": {
                "email": "96st_branch@nypl.org", 
                "phone": "2122890908"
            }, 
            "cross_street": "at Amsterdam Ave.", 
            "id": "BR", 
            "lat": 40.8139, 
            "locality": "New York", 
            "long": -73.957, 
            "name": "George Bruce Library", 
            "postal_code": "100273407", 
            "region": "NY", 
            "street_address": "518 West 125th Street"
        }, 
        {
            "contacts": {
                "email": "115st_branch@nypl.org", 
                "phone": "2126669393"
            }, 
            "cross_street": "east of Grand Concourse", 
            "id": "GD", 
            "lat": 40.8439, 
            "locality": "Bronx", 
            "long": -73.9101, 
            "name": "Grand Concourse Library", 
            "postal_code": "10457", 
            "region": "NY", 
            "street_address": "155 East 173rd Street"
        }, 
        {
            "contacts": {
                "email": "125st_branch@nypl.org", 
                "phone": "2125345050"
            }, 
            "cross_street": "at Margaret St.", 
            "id": "GK", 
            "lat": 40.5524, 
            "locality": "Staten Island", 
            "long": -74.151, 
            "name": "Great Kills Library", 
            "postal_code": "10308", 
            "region": "NY", 
            "street_address": "56 Giffords Lane"
        }, 
        {
            "contacts": {
                "email": "ottendorfer@nypl.org", 
                "phone": "2126740947"
            }, 
            "cross_street": "near Avenue D", 
            "id": "HF", 
            "lat": 40.7199, 
            "locality": "New York", 
            "long": -73.9791, 
            "name": "Hamilton Fish Park Library", 
            "postal_code": "100021197", 
            "region": "NY", 
            "street_address": "415 East Houston Street"
        }, 
        {
            "contacts": {
                "email": "riverside@nypl.org", 
                "phone": "2128701810"
            }, 
            "cross_street": null, 
            "id": "HG", 
            "lat": 40.8255, 
            "locality": "New York", 
            "long": -73.9477, 
            "name": "Hamilton Grange Library", 
            "postal_code": "100315101", 
            "region": "NY", 
            "street_address": "503 West 145th Street"
        }, 
        {
            "contacts": {
                "email": "st_agnes@nypl.org", 
                "phone": "2126210619"
            }, 
            "cross_street": null, 
            "id": "HL", 
            "lat": 40.8061, 
            "locality": "New York", 
            "long": -73.9431, 
            "name": "Harlem Library", 
            "postal_code": "100275699", 
            "region": "NY", 
            "street_address": "9 West 124th Street"
        }, 
        {
            "contacts": {
                "phone": "2124912200"
            }, 
            "cross_street": "at Woodycrest Ave.", 
            "id": "HB", 
            "lat": 40.838, 
            "locality": "Bronx", 
            "long": -73.9235, 
            "name": "High Bridge Library", 
            "postal_code": "10452", 
            "region": "NY", 
            "street_address": "78 West 168th Street"
        }, 
        {
            "contacts": {
                "email": "sewardpark@nypl.org", 
                "phone": "2124776770"
            }, 
            "cross_street": "off Seventh Ave. South", 
            "id": "HP", 
            "lat": 40.73, 
            "locality": "New York", 
            "long": -74.0053, 
            "name": "Hudson Park Library", 
            "postal_code": "100143929", 
            "region": "NY", 
            "street_address": "66 Leroy Street"
        }, 
        {
            "contacts": {
                "email": "67st_branch@nypl.org", 
                "phone": "2127341717", 
                "tty": "2127943854"
            }, 
            "cross_street": "at Drumgoole Rd., East", 
            "id": "HK", 
            "lat": 40.5345, 
            "locality": "Staten Island", 
            "long": -74.1933, 
            "name": "Huguenot Park Library", 
            "postal_code": "10312", 
            "region": "NY", 
            "street_address": "830 Huguenot Avenue"
        }, 
        {
            "contacts": {
                "email": "christinapark@nypl.org", 
                "phone": "2127523824"
            }, 
            "cross_street": null, 
            "id": "SASB", 
            "lat": 40.7532, 
            "locality": "New York", 
            "long": -73.9822, 
            "name": "Stephen A. Schwarzman Building", 
            "postal_code": "10018-2788", 
            "region": "NY", 
            "street_address": "Fifth Avenue at 42nd Street"
        }, 
        {
            "contacts": {
                "email": "tompkins_square@nypl.org", 
                "phone": "2122284747"
            }, 
            "cross_street": "at Tiffany St.", 
            "id": "HSR", 
            "lat": 40.8187, 
            "locality": "Bronx", 
            "long": -73.8939, 
            "name": "Hunt's Point Library", 
            "postal_code": "10459", 
            "region": "NY", 
            "street_address": "877 Southern Boulevard"
        }, 
        {
            "contacts": {
                "email": "washington_heights@nypl.org", 
                "phone": "2129236054"
            }, 
            "cross_street": "near Dyckman St.", 
            "id": "INR", 
            "lat": 40.866, 
            "locality": "New York", 
            "long": -73.9257, 
            "name": "Inwood Library", 
            "postal_code": "100344916", 
            "region": "NY", 
            "street_address": "4790 Broadway"
        }, 
        {
            "contacts": {
                "email": "webster@nypl.org", 
                "phone": "2122885049"
            }, 
            "cross_street": "at 10th St.", 
            "id": "JMR", 
            "lat": 40.7347, 
            "locality": "New York", 
            "long": -73.999, 
            "name": "Jefferson Market Library", 
            "postal_code": "100118454", 
            "region": "NY", 
            "street_address": "425 Avenue of the Americas"
        }, 
        {
            "contacts": {
                "email": "yorkville@nypl.org", 
                "phone": "2127445824"
            }, 
            "cross_street": "near Kingsbridge Rd.", 
            "id": "JP", 
            "lat": 40.8691, 
            "locality": "Bronx", 
            "long": -73.9012, 
            "name": "Jerome Park Library", 
            "postal_code": "10468", 
            "region": "NY", 
            "street_address": "118 Eames Place"
        }, 
        {
            "contacts": {
                "email": "allerton@nypl.org", 
                "phone": "7188814240"
            }, 
            "cross_street": null, 
            "id": "KBR", 
            "lat": 40.8805, 
            "locality": "Bronx", 
            "long": -73.908, 
            "name": "Kingsbridge Library", 
            "postal_code": "10463", 
            "region": "NY", 
            "street_address": "291 West 231st Street"
        }, 
        {
            "contacts": {
                "email": "baychester@nypl.org", 
                "phone": "7183796700"
            }, 
            "cross_street": "at E. 31st St.", 
            "id": "KP", 
            "lat": 40.7438, 
            "locality": "New York", 
            "long": -73.9797, 
            "name": "Kips Bay Library", 
            "postal_code": "100166025", 
            "region": "NY", 
            "street_address": "446 Third Avenue"
        }, 
        {
            "contacts": {
                "email": "belmont@nypl.org", 
                "phone": "7189336410"
            }, 
            "cross_street": "between W. 152nd & 153rd Sts.", 
            "id": "MB", 
            "lat": 40.826, 
            "locality": "New York", 
            "long": -73.9363, 
            "name": "Macomb's Bridge Library", 
            "postal_code": "100392004", 
            "region": "NY", 
            "street_address": "2650 Adam Clayton Powell, Jr. Blvd."
        }, 
        {
            "contacts": {
                "email": "castle_hill@nypl.org", 
                "phone": "7188243838"
            }, 
            "cross_street": "at E. 162nd St.", 
            "id": "ME", 
            "lat": 40.8267, 
            "locality": "Bronx", 
            "long": -73.9177, 
            "name": "Melrose Library", 
            "postal_code": "10451", 
            "region": "NY", 
            "street_address": "910 Morris Avenue"
        }, 
        {
            "contacts": {
                "email": "city_island@nypl.org", 
                "phone": "7188851703"
            }, 
            "cross_street": "at 40th Street", 
            "id": "MML", 
            "lat": 40.7518, 
            "locality": "New York", 
            "long": -73.9817, 
            "name": "Mid-Manhattan Library", 
            "postal_code": "100160122", 
            "region": "NY", 
            "street_address": "455 Fifth Avenue"
        }, 
        {
            "contacts": {
                "email": "clasons_point@nypl.org", 
                "phone": "7188421235"
            }, 
            "cross_street": "at W. 113th St.", 
            "id": "CL", 
            "lat": 40.8062, 
            "locality": "New York", 
            "long": -73.965, 
            "name": "Morningside Heights", 
            "postal_code": "100257822", 
            "region": "NY", 
            "street_address": "2900 Broadway"
        }, 
        {
            "contacts": {
                "email": "eastchester@nypl.org", 
                "phone": "7186533292"
            }, 
            "cross_street": "between Radcliff and Colden Aves.", 
            "id": "MP", 
            "lat": 40.8467, 
            "locality": "Bronx", 
            "long": -73.8558, 
            "name": "Morris Park Library", 
            "postal_code": "10462", 
            "region": "NY", 
            "street_address": "985 Morris Park Avenue"
        }, 
        {
            "contacts": {
                "email": "edenwald@nypl.org", 
                "phone": "7187983355"
            }, 
            "cross_street": "at Franklin Ave.", 
            "id": "MR", 
            "lat": 40.8316, 
            "locality": "Bronx", 
            "long": -73.9013, 
            "name": "Morrisania Library", 
            "postal_code": "10456", 
            "region": "NY", 
            "street_address": "610 East 169th Street"
        }, 
        {
            "contacts": {
                "email": "bronxlibrarycenter@nypl.org", 
                "phone": "7185794244", 
                "tty": "7185794244"
            }, 
            "cross_street": "near Perry Ave.", 
            "id": "MO", 
            "lat": 40.8744, 
            "locality": "Bronx", 
            "long": -73.8784, 
            "name": "Mosholu Library", 
            "postal_code": "10467", 
            "region": "NY", 
            "street_address": "285 East 205th Street"
        }, 
        {
            "contacts": {
                "email": "francis_martin@nypl.org", 
                "phone": "7182955287"
            }, 
            "cross_street": "at Alexander Ave.", 
            "id": "MH", 
            "lat": 40.8116, 
            "locality": "Bronx", 
            "long": -73.9243, 
            "name": "Mott Haven Library", 
            "postal_code": "10454", 
            "region": "NY", 
            "street_address": "321 East 140th Street"
        }, 
        {
            "contacts": {
                "email": "grand_concourse@nypl.org", 
                "phone": "7185836611"
            }, 
            "cross_street": "near Seventh Ave.", 
            "id": "MU", 
            "lat": 40.7444, 
            "locality": "New York", 
            "long": -73.9961, 
            "name": "Muhlenberg Library", 
            "postal_code": "100112379", 
            "region": "NY", 
            "street_address": "209 West 23rd Street"
        }, 
        {
            "contacts": {
                "email": "highbridge@nypl.org", 
                "phone": "7182937800"
            }, 
            "cross_street": "Between Lafayette & Mulberry Streets", 
            "id": "ML", 
            "lat": 40.7242, 
            "locality": "New York", 
            "long": -73.9956, 
            "name": "Mulberry Street Library", 
            "postal_code": "100123332", 
            "region": "NY", 
            "street_address": "10 Jersey Street"
        }, 
        {
            "contacts": {
                "email": "hunts_point@nypl.org", 
                "phone": "7186170338"
            }, 
            "cross_street": "between Broadway & Church St.", 
            "id": "LM", 
            "lat": 40.7134, 
            "locality": "New York", 
            "long": -74.0078, 
            "name": "New Amsterdam Library", 
            "postal_code": "100072223", 
            "region": "NY", 
            "street_address": "9 Murray Street"
        }, 
        {
            "contacts": {
                "email": "jerome_park@nypl.org", 
                "phone": "7185495200"
            }, 
            "cross_street": null, 
            "id": "NDR", 
            "lat": 40.572, 
            "locality": "Staten Island", 
            "long": -74.1123, 
            "name": "New Dorp Library", 
            "postal_code": "10306", 
            "region": "NY", 
            "street_address": "309 New Dorp Lane"
        }, 
        {
            "contacts": {
                "email": "kingsbridge@nypl.org", 
                "phone": "7185485656"
            }, 
            "cross_street": null, 
            "id": "LPA", 
            "lat": 40.7735, 
            "locality": "New York", 
            "long": -73.9848, 
            "name": "New York Public Library for the Performing Arts, Dorothy and Lewis B. Cullman Center", 
            "postal_code": "10023-7498", 
            "region": "NY", 
            "street_address": "40 Lincoln Center Plaza"
        }, 
        {
            "contacts": {
                "email": "melrose@nypl.org", 
                "phone": "7185880110"
            }, 
            "cross_street": "near E. 8th St. - St. Marks Place", 
            "id": "OT", 
            "lat": 40.7288, 
            "locality": "New York", 
            "long": -73.9877, 
            "name": "Ottendorfer Library", 
            "postal_code": "100038304", 
            "region": "NY", 
            "street_address": "135 Second Avenue"
        }, 
        {
            "contacts": {
                "email": "morrisania@nypl.org", 
                "phone": "7185899268"
            }, 
            "cross_street": "at Pugsley Ave.", 
            "id": "PKR", 
            "lat": 40.8336, 
            "locality": "Bronx", 
            "long": -73.8593, 
            "name": "Parkchester Library", 
            "postal_code": "10462", 
            "region": "NY", 
            "street_address": "1985 Westchester Avenue"
        }, 
        {
            "contacts": {
                "email": "mosholu@nypl.org", 
                "phone": "7188828239"
            }, 
            "cross_street": "north of Crosby Ave.", 
            "id": "PM", 
            "lat": 40.8444, 
            "locality": "Bronx", 
            "long": -73.828, 
            "name": "Pelham Bay Library", 
            "postal_code": "10461", 
            "region": "NY", 
            "street_address": "3060 Middletown Road"
        }, 
        {
            "contacts": {
                "email": "mott_haven@nypl.org", 
                "phone": "7186654878"
            }, 
            "cross_street": "at Heberton Ave.", 
            "id": "PR", 
            "lat": 40.638, 
            "locality": "Staten Island", 
            "long": -74.1322, 
            "name": "Port Richmond Library", 
            "postal_code": "10302", 
            "region": "NY", 
            "street_address": "75 Bennett Street"
        }, 
        {
            "contacts": {
                "email": "parkchester@nypl.org", 
                "phone": "7188297830"
            }, 
            "cross_street": "at Amber St.", 
            "id": "RT", 
            "lat": 40.5668, 
            "locality": "Staten Island", 
            "long": -74.1381, 
            "name": "Richmondtown Library", 
            "postal_code": "10306", 
            "region": "NY", 
            "street_address": "200 Clarke Avenue"
        }, 
        {
            "contacts": {
                "email": "pelham_bay@nypl.org", 
                "phone": "7187926744"
            }, 
            "cross_street": "at W. 256th St.", 
            "id": "RD", 
            "lat": 40.9029, 
            "locality": "Bronx", 
            "long": -73.9037, 
            "name": "Riverdale Library", 
            "postal_code": "10471", 
            "region": "NY", 
            "street_address": "5540 Mosholu Avenue"
        }, 
        {
            "contacts": {
                "email": "riverdale@nypl.org", 
                "phone": "7185491212"
            }, 
            "cross_street": "at W. 65th St.", 
            "id": "R", 
            "lat": 40.7743, 
            "locality": "New York", 
            "long": -73.9844, 
            "name": "Riverside Library", 
            "postal_code": "100236447", 
            "region": "NY", 
            "street_address": "127 Amsterdam Avenue"
        }, 
        {
            "contacts": {
                "email": "sedgwick@nypl.org", 
                "phone": "7187312074"
            }, 
            "cross_street": null, 
            "id": "RI", 
            "lat": 40.7609, 
            "locality": "New York", 
            "long": -73.9506, 
            "name": "Roosevelt Island Library", 
            "postal_code": "100440001", 
            "region": "NY", 
            "street_address": "524 Main Street"
        }, 
        {
            "contacts": {
                "email": "soundview@nypl.org", 
                "fax": "7185895869", 
                "phone": "7185890880"
            }, 
            "cross_street": null, 
            "id": "SC", 
            "lat": 40.8144, 
            "locality": "New York", 
            "long": -73.941, 
            "name": "Schomburg Center for Research in Black Culture", 
            "postal_code": "10037-1801", 
            "region": "NY", 
            "street_address": "515 Malcolm X Boulevard"
        }, 
        {
            "contacts": {
                "email": "spuyten_duyvil@nypl.org", 
                "phone": "7187961202"
            }, 
            "cross_street": null, 
            "id": "SIBL", 
            "lat": 40.748, 
            "locality": "New York", 
            "long": -73.983, 
            "name": "Science, Industry and Business Library (SIBL)", 
            "postal_code": "10016-4314", 
            "region": "NY", 
            "street_address": "188 Madison Avenue @ 34th Street"
        }, 
        {
            "contacts": {
                "email": "throgs_neck@nypl.org", 
                "phone": "7187922612"
            }, 
            "cross_street": "at W. 176th St.", 
            "id": "SD", 
            "lat": 40.8496, 
            "locality": "Bronx", 
            "long": -73.9184, 
            "name": "Sedgwick Library", 
            "postal_code": "10453", 
            "region": "NY", 
            "street_address": "1701 Martin Luther King, Jr. Blvd."
        }, 
        {
            "contacts": {
                "email": "tremont@nypl.org", 
                "phone": "7182995177"
            }, 
            "cross_street": "at Jefferson St.", 
            "id": "SE", 
            "lat": 40.7144, 
            "locality": "New York", 
            "long": -73.9884, 
            "name": "Seward Park Library", 
            "postal_code": "100025597", 
            "region": "NY", 
            "street_address": "192 East Broadway"
        }, 
        {
            "contacts": {
                "email": "van_cortlandt@nypl.org", 
                "phone": "7185435150"
            }, 
            "cross_street": "at Seward Ave.", 
            "id": "SV", 
            "lat": 40.8182, 
            "locality": "Bronx", 
            "long": -73.8625, 
            "name": "Soundview Library", 
            "postal_code": "10473", 
            "region": "NY", 
            "street_address": "660 Soundview Avenue"
        }, 
        {
            "contacts": {
                "email": "van_nest@nypl.org", 
                "phone": "7188295864"
            }, 
            "cross_street": "at Ocean Ave. & Father Capodanno Blvd.", 
            "id": "SB", 
            "lat": 40.5959, 
            "locality": "Staten Island", 
            "long": -74.0631, 
            "name": "South Beach Library", 
            "postal_code": "10305", 
            "region": "NY", 
            "street_address": "21-25 Robin Road"
        }, 
        {
            "contacts": {
                "email": "wakefield@nypl.org", 
                "phone": "7186524663"
            }, 
            "cross_street": "at Independence Ave.", 
            "id": "DY", 
            "lat": 40.8863, 
            "locality": "Bronx", 
            "long": -73.9144, 
            "name": "Spuyten Duyvil Library", 
            "postal_code": "10463", 
            "region": "NY", 
            "street_address": "650 W. 235th St."
        }, 
        {
            "contacts": {
                "email": "west_farms@nypl.org", 
                "phone": "7183675376"
            }, 
            "cross_street": "near @. 81st St.", 
            "id": "SA", 
            "lat": 40.7848, 
            "locality": "New York", 
            "long": -73.9773, 
            "name": "St. Agnes Library", 
            "postal_code": "100245506", 
            "region": "NY", 
            "street_address": "444 Amsterdam Avenue"
        }, 
        {
            "contacts": {
                "email": "westchester_square@nypl.org", 
                "phone": "7188630436"
            }, 
            "cross_street": "near Borough Hall", 
            "id": "SGC", 
            "lat": 40.6419, 
            "locality": "Staten Island", 
            "long": -74.0768, 
            "name": "St. George Library Center", 
            "postal_code": "10301", 
            "region": "NY", 
            "street_address": "5 Central Avenue"
        }, 
        {
            "contacts": {
                "email": "woodlawn_heights@nypl.org", 
                "phone": "7185199627"
            }, 
            "cross_street": "at Wright St.", 
            "id": "ST", 
            "lat": 40.6263, 
            "locality": "Staten Island", 
            "long": -74.0779, 
            "name": "Stapleton Library", 
            "postal_code": "10304", 
            "region": "NY", 
            "street_address": "132 Canal St."
        }, 
        {
            "contacts": {
                "email": "woodstock@nypl.org", 
                "phone": "7186656255"
            }, 
            "cross_street": "at E. 50th St., lower level", 
            "id": "CA", 
            "lat": 40.7568, 
            "locality": "New York", 
            "long": -73.9725, 
            "name": "Terence Cardinal Cooke-Cathedral Library", 
            "postal_code": "100226828", 
            "region": "NY", 
            "street_address": "560 Lexington Avenue"
        }, 
        {
            "contacts": {
                "email": "dongan_hills@nypl.org", 
                "phone": "7183511444"
            }, 
            "cross_street": "at E. Tremont Ave.", 
            "id": "TG", 
            "lat": 40.8219, 
            "locality": "Bronx", 
            "long": -73.8188, 
            "name": "Throg's Neck Library", 
            "postal_code": "10465", 
            "region": "NY", 
            "street_address": "3025 Cross Bronx Expressway Extension"
        }, 
        {
            "contacts": {
                "email": "great_kills@nypl.org", 
                "phone": "7189846670"
            }, 
            "cross_street": "past Willowbrook Rd.", 
            "id": "THR", 
            "lat": 40.6098, 
            "locality": "Staten Island", 
            "long": -74.148, 
            "name": "Todt Hill-Westerleigh Library", 
            "postal_code": "10314", 
            "region": "NY", 
            "street_address": "2550 Victory Boulevard"
        }, 
        {
            "contacts": {
                "email": "huguenot_park@nypl.org", 
                "phone": "7189844636"
            }, 
            "cross_street": "near Avenue B", 
            "id": "TS", 
            "lat": 40.7273, 
            "locality": "New York", 
            "long": -73.9806, 
            "name": "Tompkins Square Library", 
            "postal_code": "100095099", 
            "region": "NY", 
            "street_address": "331 East 10th Street"
        }, 
        {
            "contacts": {
                "email": "newdorp@nypl.org", 
                "phone": "7183512977"
            }, 
            "cross_street": null, 
            "id": "TV", 
            "lat": 40.5098, 
            "locality": "Staten Island", 
            "long": -74.244, 
            "name": "Tottenville Library", 
            "postal_code": "10307", 
            "region": "NY", 
            "street_address": "7430 Amboy Road"
        }, 
        {
            "contacts": {
                "email": "port_richmond@nypl.org", 
                "phone": "7184420158"
            }, 
            "cross_street": "at E. 176th St.", 
            "id": "TM", 
            "lat": 40.8461, 
            "locality": "Bronx", 
            "long": -73.8984, 
            "name": "Tremont Library", 
            "postal_code": "10457", 
            "region": "NY", 
            "street_address": "1866 Washington Avenue"
        }, 
        {
            "contacts": {
                "email": "st_george@nypl.org", 
                "phone": "7184428560", 
                "tty": "7187334315"
            }, 
            "cross_street": "south of Mosholu Parkway", 
            "id": "VC", 
            "lat": 40.8825, 
            "locality": "Bronx", 
            "long": -73.8951, 
            "name": "Van Cortlandt Library", 
            "postal_code": "10463", 
            "region": "NY", 
            "street_address": "3874 Sedgwick Avenue"
        }, 
        {
            "contacts": {
                "email": "south_beach@nypl.org", 
                "phone": "7188165834"
            }, 
            "cross_street": "near Pelham Parkway South", 
            "id": "VN", 
            "lat": 40.8551, 
            "locality": "Bronx", 
            "long": -73.8637, 
            "name": "Van Nest Library", 
            "postal_code": "10462", 
            "region": "NY", 
            "street_address": "2147 Barnes Avenue"
        }, 
        {
            "contacts": {
                "email": "stapleton@nypl.org", 
                "phone": "7187270427"
            }, 
            "cross_street": "at E. 229th St.", 
            "id": "WK", 
            "lat": 40.8912, 
            "locality": "Bronx", 
            "long": -73.8596, 
            "name": "Wakefield Library", 
            "postal_code": "10466", 
            "region": "NY", 
            "street_address": "4100 Lowerre Place"
        }, 
        {
            "contacts": {
                "email": "todt_hill@nypl.org", 
                "phone": "7184941642"
            }, 
            "cross_street": "at W. 160th St.", 
            "id": "WH", 
            "lat": 40.8346, 
            "locality": "New York", 
            "long": -73.9399, 
            "name": "Washington Heights Library", 
            "postal_code": "100325202", 
            "region": "NY", 
            "street_address": "1000 St. Nicholas Avenue"
        }, 
        {
            "contacts": {
                "email": "tottenville@nypl.org", 
                "phone": "7189840945"
            }, 
            "cross_street": "near E. 78th St.", 
            "id": "WB", 
            "lat": 40.7707, 
            "locality": "New York", 
            "long": -73.9512, 
            "name": "Webster Library", 
            "postal_code": "100218895", 
            "region": "NY", 
            "street_address": "1465 York Avenue"
        }, 
        {
            "contacts": {
                "email": "westnewbrighton@nypl.org", 
                "phone": "7184421416"
            }, 
            "cross_street": "between E. 179th & 180th Sts.", 
            "id": "WF", 
            "lat": 40.8448, 
            "locality": "Bronx", 
            "long": -73.8828, 
            "name": "West Farms Library", 
            "postal_code": "10460", 
            "region": "NY", 
            "street_address": "2085 Honeywell Avenue"
        }, 
        {
            "contacts": {
                "email": "richmondtown@nypl.org", 
                "phone": "7186680413"
            }, 
            "cross_street": "at N. Burgher Ave.", 
            "id": "NB", 
            "lat": 40.6346, 
            "locality": "Staten Island", 
            "long": -74.1152, 
            "name": "West New Brighton Library", 
            "postal_code": "10310", 
            "region": "NY", 
            "street_address": "976 Castleton Avenue"
        }, 
        {
            "contacts": {
                "email": "roosevelt_island@nypl.org", 
                "phone": "2123086243"
            }, 
            "cross_street": null, 
            "id": "WT", 
            "lat": 40.8407, 
            "locality": "Bronx", 
            "long": -73.8469, 
            "name": "Westchester Square Library", 
            "postal_code": "10461", 
            "region": "NY", 
            "street_address": "2521 Glebe Avenue"
        }, 
        {
            "contacts": {
                "phone": "9172756975"
            }, 
            "cross_street": "at E. 239th St.", 
            "id": "WL", 
            "lat": 40.9005, 
            "locality": "Bronx", 
            "long": -73.8679, 
            "name": "Woodlawn Heights Library", 
            "postal_code": "10470", 
            "region": "NY", 
            "street_address": "4355 Katonah Avenue"
        }, 
        {
            "contacts": {
                "phone": "9172756975"
            }, 
            "cross_street": "west of Prospect Ave.", 
            "id": "WO", 
            "lat": 40.8205, 
            "locality": "Bronx", 
            "long": -73.9046, 
            "name": "Woodstock Library", 
            "postal_code": "10456", 
            "region": "NY", 
            "street_address": "761 East 160th Street"
        }, 
        {
            "cross_street": "between Second & Third Aves.", 
            "id": "YV", 
            "lat": 40.774, 
            "locality": "New York", 
            "long": -73.9569, 
            "name": "Yorkville Library", 
            "postal_code": "10021-1295", 
            "region": "NY", 
            "street_address": "222 East 79th Street"
        }, 
        {
            "cross_street": "between Lexington &amp; Third Aves.", 
            "id": "GC", 
            "lat": 40.7539, 
            "locality": "New York", 
            "long": -73.974, 
            "name": "Grand Central Library", 
            "postal_code": "10017", 
            "region": "NY", 
            "street_address": "135 East 46th Street"
        }, 
        {
            "cross_street": "at Murray Street", 
            "id": "BT", 
            "lat": 40.7155, 
            "locality": "New York", 
            "long": -74.0157, 
            "name": "Battery Park City Library", 
            "postal_code": "10282", 
            "region": "NY", 
            "street_address": "175 North End Avenue"
        }
    ]
}
